{
"type": "FeatureCollection",
"crs": { "type": "name", "properties": { "name": "urn:ogc:def:crs:OGC:1.3:CRS84" } },
"features": [
{ "type": "Feature", "properties": { "State": "GA", "Facility Name": "Bowen", "Facility ID": 703, "Year": 2023, "Gross Load (MWh)": 11170637.5, "Steam Load (1000 lb)": 0.0, "SO2 Mass (short tons)": 7142.565, "CO2 Mass (short tons)": 11173923.44, "NOx Mass (short tons)": 5684.126, "Heat Input (mmBtu)": 108907641.6, "Latitude": 34.1256, "Longitude": -84.9192 }, "geometry": { "type": "Point", "coordinates": [ -84.9192, 34.1256 ] } },
{ "type": "Feature", "properties": { "State": "GA", "Facility Name": "Jack McDonough", "Facility ID": 710, "Year": 2023, "Gross Load (MWh)": 18066522.5, "Steam Load (1000 lb)": 0.0, "SO2 Mass (short tons)": 36.365, "CO2 Mass (short tons)": 7122407.867, "NOx Mass (short tons)": 472.817, "Heat Input (mmBtu)": 119848536.4, "Latitude": 33.8244, "Longitude": -84.475 }, "geometry": { "type": "Point", "coordinates": [ -84.475, 33.8244 ] } },
{ "type": "Feature", "properties": { "State": "GA", "Facility Name": "McManus", "Facility ID": 715, "Year": 2023, "Gross Load (MWh)": 2640.0, "Steam Load (1000 lb)": 0.0, "SO2 Mass (short tons)": 8.566, "CO2 Mass (short tons)": 0.0, "NOx Mass (short tons)": 20.556, "Heat Input (mmBtu)": 34257.0, "Latitude": 31.2125, "Longitude": -81.5458 }, "geometry": { "type": "Point", "coordinates": [ -81.5458, 31.2125 ] } },
{ "type": "Feature", "properties": { "State": "GA", "Facility Name": "Yates", "Facility ID": 728, "Year": 2023, "Gross Load (MWh)": 2380876.82, "Steam Load (1000 lb)": 0.0, "SO2 Mass (short tons)": 7.265, "CO2 Mass (short tons)": 1439009.569, "NOx Mass (short tons)": 965.684, "Heat Input (mmBtu)": 24214103.5, "Latitude": 33.4622, "Longitude": -84.8986 }, "geometry": { "type": "Point", "coordinates": [ -84.8986, 33.4622 ] } },
{ "type": "Feature", "properties": { "State": "GA", "Facility Name": "McIntosh (6124)", "Facility ID": 6124, "Year": 2023, "Gross Load (MWh)": 30253.0, "Steam Load (1000 lb)": 0.0, "SO2 Mass (short tons)": 0.991, "CO2 Mass (short tons)": 20877.3, "NOx Mass (short tons)": 41.633, "Heat Input (mmBtu)": 340582.1, "Latitude": 32.3558, "Longitude": -81.1683 }, "geometry": { "type": "Point", "coordinates": [ -81.1683, 32.3558 ] } },
{ "type": "Feature", "properties": { "State": "GA", "Facility Name": "Scherer", "Facility ID": 6257, "Year": 2023, "Gross Load (MWh)": 7368872.0, "Steam Load (1000 lb)": 0.0, "SO2 Mass (short tons)": 685.331, "CO2 Mass (short tons)": 8325583.984, "NOx Mass (short tons)": 5692.214, "Heat Input (mmBtu)": 79382038.65000001, "Latitude": 33.0583, "Longitude": -83.8072 }, "geometry": { "type": "Point", "coordinates": [ -83.8072, 33.0583 ] } },
{ "type": "Feature", "properties": { "State": "GA", "Facility Name": "Allen B Wilson Combustion Turbine Plant", "Facility ID": 6258, "Year": 2023, "Gross Load (MWh)": 3609.0, "Steam Load (1000 lb)": 0.0, "SO2 Mass (short tons)": 11.791, "CO2 Mass (short tons)": 0.0, "NOx Mass (short tons)": 28.299, "Heat Input (mmBtu)": 47164.1, "Latitude": 33.138, "Longitude": -81.748 }, "geometry": { "type": "Point", "coordinates": [ -81.748, 33.138 ] } },
{ "type": "Feature", "properties": { "State": "GA", "Facility Name": "Robins", "Facility ID": 7348, "Year": 2023, "Gross Load (MWh)": 1530.0, "Steam Load (1000 lb)": 0.0, "SO2 Mass (short tons)": 0.72, "CO2 Mass (short tons)": 931.6, "NOx Mass (short tons)": 3.513, "Heat Input (mmBtu)": 14022.0, "Latitude": 32.5806, "Longitude": -83.5831 }, "geometry": { "type": "Point", "coordinates": [ -83.5831, 32.5806 ] } },
{ "type": "Feature", "properties": { "State": "GA", "Facility Name": "MPC Generating", "Facility ID": 7764, "Year": 2023, "Gross Load (MWh)": 47574.36, "Steam Load (1000 lb)": 0.0, "SO2 Mass (short tons)": 0.163, "CO2 Mass (short tons)": 32348.989, "NOx Mass (short tons)": 28.922, "Heat Input (mmBtu)": 542925.595, "Latitude": 33.8122, "Longitude": -83.6954 }, "geometry": { "type": "Point", "coordinates": [ -83.6954, 33.8122 ] } },
{ "type": "Feature", "properties": { "State": "GA", "Facility Name": "Dahlberg (Jackson County)", "Facility ID": 7765, "Year": 2023, "Gross Load (MWh)": 244279.14, "Steam Load (1000 lb)": 0.0, "SO2 Mass (short tons)": 0.942, "CO2 Mass (short tons)": 187556.359, "NOx Mass (short tons)": 48.838, "Heat Input (mmBtu)": 3087742.986, "Latitude": 34.0386, "Longitude": -83.3972 }, "geometry": { "type": "Point", "coordinates": [ -83.3972, 34.0386 ] } },
{ "type": "Feature", "properties": { "State": "GA", "Facility Name": "Sowega Power Project", "Facility ID": 7768, "Year": 2023, "Gross Load (MWh)": 79937.7, "Steam Load (1000 lb)": 0.0, "SO2 Mass (short tons)": 0.234, "CO2 Mass (short tons)": 46358.001, "NOx Mass (short tons)": 36.879, "Heat Input (mmBtu)": 780079.714, "Latitude": 31.3869, "Longitude": -84.0819 }, "geometry": { "type": "Point", "coordinates": [ -84.0819, 31.3869 ] } },
{ "type": "Feature", "properties": { "State": "GA", "Facility Name": "Sewell Creek Energy", "Facility ID": 7813, "Year": 2023, "Gross Load (MWh)": 428581.4, "Steam Load (1000 lb)": 0.0, "SO2 Mass (short tons)": 1.462, "CO2 Mass (short tons)": 289413.558, "NOx Mass (short tons)": 154.577, "Heat Input (mmBtu)": 4869966.735, "Latitude": 33.9486, "Longitude": -85.2769 }, "geometry": { "type": "Point", "coordinates": [ -85.2769, 33.9486 ] } },
{ "type": "Feature", "properties": { "State": "GA", "Facility Name": "Smarr Energy Facility", "Facility ID": 7829, "Year": 2023, "Gross Load (MWh)": 156370.18, "Steam Load (1000 lb)": 0.0, "SO2 Mass (short tons)": 0.617, "CO2 Mass (short tons)": 122306.72, "NOx Mass (short tons)": 43.198, "Heat Input (mmBtu)": 2058062.029, "Latitude": 32.9856, "Longitude": -83.8464 }, "geometry": { "type": "Point", "coordinates": [ -83.8464, 32.9856 ] } },
{ "type": "Feature", "properties": { "State": "GA", "Facility Name": "Talbot Energy Facility", "Facility ID": 7916, "Year": 2023, "Gross Load (MWh)": 524114.19, "Steam Load (1000 lb)": 0.0, "SO2 Mass (short tons)": 1.881, "CO2 Mass (short tons)": 366819.72, "NOx Mass (short tons)": 94.273, "Heat Input (mmBtu)": 6168299.248, "Latitude": 32.5892, "Longitude": -84.6917 }, "geometry": { "type": "Point", "coordinates": [ -84.6917, 32.5892 ] } },
{ "type": "Feature", "properties": { "State": "GA", "Facility Name": "Chattahoochee Energy Facility", "Facility ID": 7917, "Year": 2023, "Gross Load (MWh)": 3611215.64, "Steam Load (1000 lb)": 0.0, "SO2 Mass (short tons)": 7.286, "CO2 Mass (short tons)": 1443327.843, "NOx Mass (short tons)": 112.777, "Heat Input (mmBtu)": 24286797.74, "Latitude": 33.407, "Longitude": -85.0387 }, "geometry": { "type": "Point", "coordinates": [ -85.0387, 33.407 ] } },
{ "type": "Feature", "properties": { "State": "GA", "Facility Name": "Wansley (7946)", "Facility ID": 7946, "Year": 2023, "Gross Load (MWh)": 1998559.85, "Steam Load (1000 lb)": 0.0, "SO2 Mass (short tons)": 6.39, "CO2 Mass (short tons)": 1265773.002, "NOx Mass (short tons)": 130.098, "Heat Input (mmBtu)": 21299016.53, "Latitude": 33.4082, "Longitude": -85.0399 }, "geometry": { "type": "Point", "coordinates": [ -85.0399, 33.4082 ] } },
{ "type": "Feature", "properties": { "State": "GA", "Facility Name": "Mid-Georgia Cogeneration", "Facility ID": 55040, "Year": 2023, "Gross Load (MWh)": 151848.87, "Steam Load (1000 lb)": 0.0, "SO2 Mass (short tons)": 0.425, "CO2 Mass (short tons)": 71904.19, "NOx Mass (short tons)": 19.968, "Heat Input (mmBtu)": 1209029.33, "Latitude": 32.4853, "Longitude": -83.6036 }, "geometry": { "type": "Point", "coordinates": [ -83.6036, 32.4853 ] } },
{ "type": "Feature", "properties": { "State": "GA", "Facility Name": "Tenaska Georgia Generating Station", "Facility ID": 55061, "Year": 2023, "Gross Load (MWh)": 239120.48, "Steam Load (1000 lb)": 0.0, "SO2 Mass (short tons)": 0.742, "CO2 Mass (short tons)": 146127.917, "NOx Mass (short tons)": 51.437, "Heat Input (mmBtu)": 2456049.522, "Latitude": 33.3516, "Longitude": -84.9996 }, "geometry": { "type": "Point", "coordinates": [ -84.9996, 33.3516 ] } },
{ "type": "Feature", "properties": { "State": "GA", "Facility Name": "Walton County Power", "Facility ID": 55128, "Year": 2023, "Gross Load (MWh)": 252154.03, "Steam Load (1000 lb)": 0.0, "SO2 Mass (short tons)": 0.773, "CO2 Mass (short tons)": 153252.357, "NOx Mass (short tons)": 68.533, "Heat Input (mmBtu)": 2578761.506, "Latitude": 33.8147, "Longitude": -83.6969 }, "geometry": { "type": "Point", "coordinates": [ -83.6969, 33.8147 ] } },
{ "type": "Feature", "properties": { "State": "GA", "Facility Name": "Hawk Road Energy Facility", "Facility ID": 55141, "Year": 2023, "Gross Load (MWh)": 570466.1, "Steam Load (1000 lb)": 0.0, "SO2 Mass (short tons)": 1.933, "CO2 Mass (short tons)": 382823.016, "NOx Mass (short tons)": 147.255, "Heat Input (mmBtu)": 6441706.784, "Latitude": 33.3577, "Longitude": -84.9912 }, "geometry": { "type": "Point", "coordinates": [ -84.9912, 33.3577 ] } },
{ "type": "Feature", "properties": { "State": "GA", "Facility Name": "Doyle Energy Facility", "Facility ID": 55244, "Year": 2023, "Gross Load (MWh)": 54823.83, "Steam Load (1000 lb)": 0.0, "SO2 Mass (short tons)": 0.201, "CO2 Mass (short tons)": 39923.728, "NOx Mass (short tons)": 23.102, "Heat Input (mmBtu)": 671794.933, "Latitude": 33.8376, "Longitude": -83.6996 }, "geometry": { "type": "Point", "coordinates": [ -83.6996, 33.8376 ] } },
{ "type": "Feature", "properties": { "State": "GA", "Facility Name": "Edward L Addison Generating Plant", "Facility ID": 55267, "Year": 2023, "Gross Load (MWh)": 203130.71, "Steam Load (1000 lb)": 0.0, "SO2 Mass (short tons)": 0.7, "CO2 Mass (short tons)": 134538.226, "NOx Mass (short tons)": 47.16, "Heat Input (mmBtu)": 2241479.937, "Latitude": 32.911, "Longitude": -84.3059 }, "geometry": { "type": "Point", "coordinates": [ -84.3059, 32.911 ] } },
{ "type": "Feature", "properties": { "State": "GA", "Facility Name": "Baconton Power", "Facility ID": 55304, "Year": 2023, "Gross Load (MWh)": 37495.19, "Steam Load (1000 lb)": 0.0, "SO2 Mass (short tons)": 0.111, "CO2 Mass (short tons)": 21947.777, "NOx Mass (short tons)": 17.361, "Heat Input (mmBtu)": 369143.471, "Latitude": 31.3869, "Longitude": -84.0819 }, "geometry": { "type": "Point", "coordinates": [ -84.0819, 31.3869 ] } },
{ "type": "Feature", "properties": { "State": "GA", "Facility Name": "Washington County Power", "Facility ID": 55332, "Year": 2023, "Gross Load (MWh)": 142280.22, "Steam Load (1000 lb)": 0.0, "SO2 Mass (short tons)": 0.457, "CO2 Mass (short tons)": 90345.378, "NOx Mass (short tons)": 29.519, "Heat Input (mmBtu)": 1520203.723, "Latitude": 33.0917, "Longitude": -82.9803 }, "geometry": { "type": "Point", "coordinates": [ -82.9803, 33.0917 ] } },
{ "type": "Feature", "properties": { "State": "GA", "Facility Name": "Thomas A. Smith Energy Facility", "Facility ID": 55382, "Year": 2023, "Gross Load (MWh)": 9069142.34, "Steam Load (1000 lb)": 0.0, "SO2 Mass (short tons)": 19.084, "CO2 Mass (short tons)": 3780146.637, "NOx Mass (short tons)": 307.442, "Heat Input (mmBtu)": 63608350.39, "Latitude": 34.7094, "Longitude": -84.9182 }, "geometry": { "type": "Point", "coordinates": [ -84.9182, 34.7094 ] } },
{ "type": "Feature", "properties": { "State": "GA", "Facility Name": "Bobby C. Smith Jr. Energy Facility", "Facility ID": 55406, "Year": 2023, "Gross Load (MWh)": 2573233.47, "Steam Load (1000 lb)": 0.0, "SO2 Mass (short tons)": 5.548, "CO2 Mass (short tons)": 1098961.825, "NOx Mass (short tons)": 104.426, "Heat Input (mmBtu)": 18492124.69, "Latitude": 32.2792, "Longitude": -81.2842 }, "geometry": { "type": "Point", "coordinates": [ -81.2842, 32.2792 ] } },
{ "type": "Feature", "properties": { "State": "GA", "Facility Name": "AL Sandersville Energy Facility", "Facility ID": 55672, "Year": 2023, "Gross Load (MWh)": 101149.35, "Steam Load (1000 lb)": 0.0, "SO2 Mass (short tons)": 0.383, "CO2 Mass (short tons)": 73323.3, "NOx Mass (short tons)": 69.098, "Heat Input (mmBtu)": 1242930.1, "Latitude": 33.1189, "Longitude": -82.8608 }, "geometry": { "type": "Point", "coordinates": [ -82.8608, 33.1189 ] } },
{ "type": "Feature", "properties": { "State": "GA", "Facility Name": "Wansley CC (55965)", "Facility ID": 55965, "Year": 2023, "Gross Load (MWh)": 9245340.35, "Steam Load (1000 lb)": 0.0, "SO2 Mass (short tons)": 18.837, "CO2 Mass (short tons)": 3731494.509, "NOx Mass (short tons)": 268.599, "Heat Input (mmBtu)": 62789612.06, "Latitude": 33.4063, "Longitude": -85.0373 }, "geometry": { "type": "Point", "coordinates": [ -85.0373, 33.4063 ] } },
{ "type": "Feature", "properties": { "State": "GA", "Facility Name": "Walton Bainbridge Power Facility", "Facility ID": 56015, "Year": 2023, "Gross Load (MWh)": 147.79, "Steam Load (1000 lb)": 0.0, "SO2 Mass (short tons)": 0.334, "CO2 Mass (short tons)": 0.0, "NOx Mass (short tons)": 0.339, "Heat Input (mmBtu)": 3306.8, "Latitude": 30.9111, "Longitude": -84.5472 }, "geometry": { "type": "Point", "coordinates": [ -84.5472, 30.9111 ] } },
{ "type": "Feature", "properties": { "State": "GA", "Facility Name": "McIntosh Combined Cycle Facility", "Facility ID": 56150, "Year": 2023, "Gross Load (MWh)": 9237842.97, "Steam Load (1000 lb)": 0.0, "SO2 Mass (short tons)": 19.346, "CO2 Mass (short tons)": 3830974.495, "NOx Mass (short tons)": 191.149, "Heat Input (mmBtu)": 64455936.63, "Latitude": 32.3478, "Longitude": -81.1828 }, "geometry": { "type": "Point", "coordinates": [ -81.1828, 32.3478 ] } },
{ "type": "Feature", "properties": { "State": "GA", "Facility Name": "Albany Green Energy LLC", "Facility ID": 60340, "Year": 2023, "Gross Load (MWh)": 0.0, "Steam Load (1000 lb)": 4291986.49, "SO2 Mass (short tons)": 5.645, "CO2 Mass (short tons)": 768218.23, "NOx Mass (short tons)": 204.364, "Heat Input (mmBtu)": 7022664.949, "Latitude": 31.5492, "Longitude": -84.1114 }, "geometry": { "type": "Point", "coordinates": [ -84.1114, 31.5492 ] } },
{ "type": "Feature", "properties": { "State": "GA", "Facility Name": "Hartwell Energy Facility", "Facility ID": 70454, "Year": 2023, "Gross Load (MWh)": 205293.32, "Steam Load (1000 lb)": 0.0, "SO2 Mass (short tons)": 0.754, "CO2 Mass (short tons)": 150403.378, "NOx Mass (short tons)": 75.362, "Heat Input (mmBtu)": 2530813.219, "Latitude": 34.3387, "Longitude": -82.8207 }, "geometry": { "type": "Point", "coordinates": [ -82.8207, 34.3387 ] } }
]
}
